City_ID,City,Country,Date,Lat,Lng,Max Temp,Humidity,Cloudiness,Wind Speed,Current Description,Rain inches (last 3 hours),Snow inches (last 3 hours)
0,Arraial Do Cabo,BR,2020-05-09 20:49:08,-22.97,-42.03,71.6,68,0,5.82,clear sky,0.0,0.0
1,Dikson,RU,2020-05-09 20:49:08,73.51,80.55,26.06,97,92,18.37,overcast clouds,0.0,0.0
2,Tautira,PF,2020-05-09 20:49:08,-17.73,-149.15,86.0,70,35,4.7,scattered clouds,0.0,0.0
3,Newport,GB,2020-05-09 20:49:09,51.59,-3.0,63.0,73,98,5.75,overcast clouds,0.0,0.0
4,Tiksi,RU,2020-05-09 20:49:09,71.69,128.87,17.38,95,0,4.76,clear sky,0.0,0.0
5,Kahului,US,2020-05-09 20:49:09,20.89,-156.47,80.6,57,40,17.22,scattered clouds,0.0,0.0
6,Sioux Lookout,CA,2020-05-09 20:49:09,50.1,-91.92,42.8,45,75,13.87,broken clouds,0.0,0.0
7,Rikitea,PF,2020-05-09 20:49:09,-23.12,-134.97,75.51,69,83,2.98,broken clouds,0.0,0.0
8,Dunedin,NZ,2020-05-09 20:48:53,-45.87,170.5,51.01,96,83,4.0,broken clouds,0.0,0.0
9,Broome,US,2020-05-09 20:49:10,42.25,-75.83,37.0,85,40,16.11,light snow,0.0,0.0
10,Sambava,MG,2020-05-09 20:49:10,-14.27,50.17,75.34,85,79,13.09,broken clouds,0.0,0.0
11,Ushuaia,AR,2020-05-09 20:49:11,-54.8,-68.3,48.2,70,75,4.7,broken clouds,0.0,0.0
12,Qaqortoq,GL,2020-05-09 20:49:11,60.72,-46.03,51.8,21,92,21.92,overcast clouds,0.0,0.0
13,Geraldton,AU,2020-05-09 20:49:11,-28.77,114.6,60.8,44,70,5.82,broken clouds,0.0,0.0
14,Jamestown,US,2020-05-09 20:45:20,42.1,-79.24,37.0,69,90,19.46,overcast clouds,0.0,0.0
15,Ulladulla,AU,2020-05-09 20:49:12,-35.35,150.47,51.01,61,0,12.75,clear sky,0.0,0.0
16,Ostrovnoy,RU,2020-05-09 20:49:12,68.05,39.51,34.29,88,100,3.09,overcast clouds,0.0,0.0
17,Puerto Ayora,EC,2020-05-09 20:49:12,-0.74,-90.35,84.2,70,20,20.8,few clouds,0.0,0.0
18,Mataura,NZ,2020-05-09 20:49:13,-46.19,168.86,47.55,80,63,3.83,broken clouds,0.0,0.0
19,Butaritari,KI,2020-05-09 20:49:13,3.07,172.79,83.01,81,0,11.61,clear sky,0.0,0.0
20,Tuktoyaktuk,CA,2020-05-09 20:49:13,69.45,-133.04,33.8,74,40,21.92,scattered clouds,0.0,0.0
21,Barrow,US,2020-05-09 20:49:14,71.29,-156.79,28.4,86,1,8.05,clear sky,0.0,0.0
22,Khatanga,RU,2020-05-09 20:49:14,71.97,102.5,16.48,96,11,8.16,few clouds,0.0,0.0
23,Punta Arenas,CL,2020-05-09 20:49:14,-53.15,-70.92,44.6,87,75,4.7,broken clouds,0.0,0.0
24,Kaitangata,NZ,2020-05-09 20:49:14,-46.28,169.85,50.0,74,95,1.99,overcast clouds,0.0,0.0
25,San Jose,US,2020-05-09 20:45:52,37.34,-121.89,82.99,41,5,9.17,clear sky,0.0,0.0
26,Kosonsoy,UZ,2020-05-09 20:49:15,41.26,71.55,62.6,72,97,6.93,overcast clouds,0.0,0.0
27,Vardo,NO,2020-05-09 20:49:15,70.37,31.11,34.65,83,75,2.59,broken clouds,0.0,0.0
28,Ponta Do Sol,PT,2020-05-09 20:49:15,32.67,-17.1,68.0,68,40,4.7,scattered clouds,0.0,0.0
29,Remontnoye,RU,2020-05-09 20:49:15,46.56,43.65,50.0,71,1,17.9,clear sky,0.0,0.0
30,Vanimo,PG,2020-05-09 20:46:22,-2.67,141.3,79.0,86,82,5.48,light rain,0.0,0.0
31,Worthington,US,2020-05-09 20:48:13,40.09,-83.02,50.0,36,90,16.11,overcast clouds,0.0,0.0
32,Albany,US,2020-05-09 20:47:32,42.6,-73.97,43.0,36,79,1.01,broken clouds,0.0,0.0
33,Kodiak,US,2020-05-09 20:46:58,57.79,-152.41,44.6,81,90,10.29,light rain,0.0,0.0
34,Saint-Philippe,RE,2020-05-09 20:49:17,-21.36,55.77,69.8,77,20,8.05,few clouds,0.0,0.0
35,Pevek,RU,2020-05-09 20:49:17,69.7,170.31,38.16,74,100,9.98,overcast clouds,0.0,0.0
36,Atuona,PF,2020-05-09 20:49:17,-9.8,-139.03,80.91,78,48,17.02,scattered clouds,0.0,0.0
37,Port Alfred,ZA,2020-05-09 20:49:17,-33.59,26.89,61.0,95,1,5.01,clear sky,0.0,0.0
38,Mar Del Plata,AR,2020-05-09 20:49:11,-38.0,-57.56,66.99,68,0,18.34,clear sky,0.0,0.0
39,Ayna,PE,2020-05-09 20:49:18,-12.65,-73.92,68.86,60,93,4.09,overcast clouds,0.0,0.0
40,Gimli,CA,2020-05-09 20:49:18,50.63,-96.99,46.99,41,100,21.0,overcast clouds,0.0,0.0
41,Upernavik,GL,2020-05-09 20:49:18,72.79,-56.15,20.55,92,100,11.16,overcast clouds,0.0,0.0
42,Qasigiannguit,GL,2020-05-09 20:49:19,68.82,-51.19,33.8,74,100,11.41,overcast clouds,0.0,0.0
43,Hami,CN,2020-05-09 20:49:19,42.8,93.45,55.92,34,0,6.11,clear sky,0.0,0.0
44,Omboue,GA,2020-05-09 20:49:19,-1.57,9.26,77.54,85,69,3.38,broken clouds,0.0,0.0
45,Mahebourg,MU,2020-05-09 20:49:19,-20.41,57.7,73.4,83,40,9.17,scattered clouds,0.0,0.0
46,Mombaca,BR,2020-05-09 20:49:19,-5.74,-39.63,72.37,78,31,0.74,scattered clouds,0.0,0.0
47,Ribeira Grande,PT,2020-05-09 20:49:20,38.52,-28.7,64.4,88,75,19.46,broken clouds,0.0,0.0
48,Vaini,TO,2020-05-09 20:49:20,-21.2,-175.2,80.6,94,75,10.29,broken clouds,0.0,0.0
49,Coahuayana,MX,2020-05-09 20:49:20,18.73,-103.68,91.4,41,40,11.41,scattered clouds,0.0,0.0
50,Den Helder,NL,2020-05-09 20:49:20,52.96,4.76,60.01,87,20,8.05,few clouds,0.0,0.0
51,Busselton,AU,2020-05-09 20:49:21,-33.65,115.33,39.99,73,0,3.85,clear sky,0.0,0.0
52,Korla,CN,2020-05-09 20:49:21,41.76,86.15,65.8,25,25,6.91,scattered clouds,0.0,0.0
53,Iida,JP,2020-05-09 20:49:21,35.52,137.82,55.0,100,100,1.45,moderate rain,0.0,0.0
54,Iberia,US,2020-05-09 20:49:21,29.95,-91.75,66.2,52,90,12.75,overcast clouds,0.0,0.0
55,Cozumel,MX,2020-05-09 20:49:22,20.51,-86.95,87.8,66,75,9.17,broken clouds,0.0,0.0
56,Okato,NZ,2020-05-09 20:49:22,-39.2,173.88,51.01,84,15,4.0,few clouds,0.0,0.0
57,Airai,TL,2020-05-09 20:49:22,-8.93,125.41,56.43,100,100,3.47,overcast clouds,0.0,0.0
58,Itoman,JP,2020-05-09 20:49:22,26.12,127.67,75.2,94,40,5.82,scattered clouds,0.0,0.0
59,New Norfolk,AU,2020-05-09 20:49:23,-42.78,147.06,42.01,85,18,3.15,few clouds,0.0,0.0
60,Bluff,NZ,2020-05-09 20:49:23,-46.6,168.33,52.32,77,75,9.06,broken clouds,0.0,0.0
61,Vila Franca Do Campo,PT,2020-05-09 20:49:23,37.72,-25.43,62.6,88,75,24.16,broken clouds,0.0,0.0
62,Hobart,AU,2020-05-09 20:45:02,-42.88,147.33,45.0,81,20,5.82,few clouds,0.0,0.0
63,San Patricio,MX,2020-05-09 20:49:24,19.22,-104.7,86.0,79,20,11.41,few clouds,0.0,0.0
64,Yar-Sale,RU,2020-05-09 20:49:24,66.83,70.83,33.39,92,93,6.89,overcast clouds,0.0,0.0
65,Acapulco,MX,2020-05-09 20:44:37,16.86,-99.89,87.8,62,5,8.05,clear sky,0.0,0.0
66,Ekhabi,RU,2020-05-09 20:49:24,53.51,142.97,32.45,94,96,10.13,overcast clouds,0.0,0.0
67,Los Llanos De Aridane,ES,2020-05-09 20:49:25,28.66,-17.92,69.8,73,40,17.22,scattered clouds,0.0,0.0
68,Conde,BR,2020-05-09 20:49:25,-7.26,-34.91,80.6,74,20,17.22,few clouds,0.0,0.0
69,Kovdor,RU,2020-05-09 20:49:25,67.57,30.48,28.81,98,78,3.98,broken clouds,0.0,0.0
70,Avarua,CK,2020-05-09 20:49:25,-21.21,-159.78,80.6,83,13,16.11,few clouds,0.0,0.0
71,Lorengau,PG,2020-05-09 20:49:26,-2.02,147.27,83.64,75,8,6.4,clear sky,0.0,0.0
72,Krasnoselkup,RU,2020-05-09 20:49:26,65.7,82.47,30.45,97,0,5.03,clear sky,0.0,0.0
73,Thompson,CA,2020-05-09 20:49:26,55.74,-97.86,35.6,43,75,18.34,broken clouds,0.0,0.0
74,Yenagoa,NG,2020-05-09 20:49:26,4.92,6.26,79.05,91,30,3.78,scattered clouds,0.0,0.0
75,Neiafu,TO,2020-05-09 20:49:26,-18.65,-173.98,82.4,83,40,9.17,scattered clouds,0.0,0.0
76,Jacareacanga,BR,2020-05-09 20:49:27,-6.22,-57.75,80.15,92,98,2.46,light rain,0.0,0.0
77,Buan,PH,2020-05-09 20:49:27,5.16,120.04,82.17,77,95,3.09,overcast clouds,0.0,0.0
78,Faanui,PF,2020-05-09 20:45:28,-16.48,-151.75,81.7,80,23,17.9,few clouds,0.0,0.0
79,Bandar-E Lengeh,IR,2020-05-09 20:49:27,26.56,54.88,87.12,33,47,8.21,scattered clouds,0.0,0.0
80,Ilulissat,GL,2020-05-09 20:48:08,69.22,-51.1,33.8,74,100,11.41,overcast clouds,0.0,0.0
81,Tecoanapa,MX,2020-05-09 20:49:28,16.52,-98.75,89.98,52,0,14.03,clear sky,0.0,0.0
82,Chuy,UY,2020-05-09 20:49:28,-33.7,-53.46,59.22,65,87,6.38,overcast clouds,0.0,0.0
83,Bethel,US,2020-05-09 20:49:28,41.37,-73.41,42.8,28,75,16.11,broken clouds,0.0,0.0
84,Hermanus,ZA,2020-05-09 20:49:29,-34.42,19.23,61.0,79,0,3.0,clear sky,0.0,0.0
85,Sibiti,CG,2020-05-09 20:49:29,-3.68,13.35,72.09,94,99,0.94,overcast clouds,0.0,0.0
86,Minbu,MM,2020-05-09 20:49:29,20.18,94.88,83.84,45,1,2.77,clear sky,0.0,0.0
87,Castro,BR,2020-05-09 20:44:55,-24.79,-50.01,57.07,77,0,4.09,clear sky,0.0,0.0
88,Pringsewu,ID,2020-05-09 20:49:30,-5.36,104.97,75.07,92,97,2.35,light rain,0.0,0.0
89,Bredasdorp,ZA,2020-05-09 20:49:30,-34.53,20.04,60.8,93,0,4.7,clear sky,0.0,0.0
90,Cobija,BO,2020-05-09 20:49:30,-11.03,-68.77,83.82,58,0,0.81,clear sky,0.0,0.0
91,Egra,CZ,2020-05-09 20:49:30,50.08,12.37,57.0,92,100,4.68,overcast clouds,0.0,0.0
92,Kapaa,US,2020-05-09 20:49:31,22.08,-159.32,77.0,69,90,17.22,overcast clouds,0.0,0.0
93,Bowen,AU,2020-05-09 20:49:31,-20.02,148.23,68.0,100,40,5.82,scattered clouds,0.0,0.0
94,Lavrentiya,RU,2020-05-09 20:49:31,65.58,-171.0,35.33,92,100,10.27,overcast clouds,0.0,0.0
95,Tual,ID,2020-05-09 20:49:31,-5.67,132.75,82.54,82,15,18.37,few clouds,0.0,0.0
96,Cape Town,ZA,2020-05-09 20:46:00,-33.93,18.42,60.8,93,40,5.82,scattered clouds,0.0,0.0
97,Cabo San Lucas,MX,2020-05-09 20:49:32,22.89,-109.91,86.0,23,5,9.17,clear sky,0.0,0.0
98,Kushima,JP,2020-05-09 20:49:32,31.46,131.23,69.8,88,75,3.15,mist,0.0,0.0
99,Amethi,IN,2020-05-09 20:49:32,26.15,81.82,86.36,24,0,8.3,clear sky,0.0,0.0
100,Sandwick,GB,2020-05-09 20:49:33,60.0,-1.25,35.6,72,66,18.34,broken clouds,0.0,0.0
101,Manggar,ID,2020-05-09 20:49:33,-2.88,108.27,79.57,83,59,2.33,broken clouds,0.0,0.0
102,Bambous Virieux,MU,2020-05-09 20:46:00,-20.34,57.76,73.4,83,40,9.17,scattered clouds,0.0,0.0
103,Tezu,IN,2020-05-09 20:49:33,27.92,96.17,71.89,51,0,4.03,clear sky,0.0,0.0
104,Jiwani,PK,2020-05-09 20:49:34,25.05,61.74,83.7,73,67,7.58,broken clouds,0.0,0.0
105,Ternate,ID,2020-05-09 20:49:34,0.8,127.4,82.53,76,48,3.78,scattered clouds,0.0,0.0
106,Paso De Los Toros,UY,2020-05-09 20:49:34,-32.82,-56.52,59.09,66,4,7.92,clear sky,0.0,0.0
107,Angoche,MZ,2020-05-09 20:49:34,-16.23,39.91,73.81,85,79,10.45,light rain,0.0,0.0
108,Souillac,MU,2020-05-09 20:49:35,-20.52,57.52,73.4,83,40,9.17,scattered clouds,0.0,0.0
109,Gallup,US,2020-05-09 20:47:01,35.53,-108.74,80.6,6,1,16.11,clear sky,0.0,0.0
110,Jawad,IN,2020-05-09 20:49:35,24.6,74.85,86.16,27,23,7.56,few clouds,0.0,0.0
111,Kachug,RU,2020-05-09 20:49:35,53.96,105.88,36.93,81,4,4.18,clear sky,0.0,0.0
112,Comodoro Rivadavia,AR,2020-05-09 20:48:43,-45.87,-67.5,60.8,51,33,18.34,scattered clouds,0.0,0.0
113,Mpika,ZM,2020-05-09 20:49:36,-11.83,31.45,58.21,78,0,11.9,clear sky,0.0,0.0
114,Lebu,CL,2020-05-09 20:48:03,-37.62,-73.65,58.06,80,100,17.02,overcast clouds,0.0,0.0
115,Zhuhai,CN,2020-05-09 20:49:36,22.28,113.57,84.2,88,40,6.93,scattered clouds,0.0,0.0
116,Poli,TZ,2020-05-09 20:49:36,-3.33,36.8,69.8,93,75,13.87,broken clouds,0.0,0.0
117,Koungou,YT,2020-05-09 20:49:37,-12.73,45.2,78.8,94,73,3.36,light rain,0.0,0.0
118,Bathsheba,BB,2020-05-09 20:49:37,13.22,-59.52,84.2,62,40,23.04,shower rain,0.0,0.0
119,Hilo,US,2020-05-09 20:49:11,19.73,-155.09,78.8,65,40,6.93,scattered clouds,0.0,0.0
120,Mitu,CO,2020-05-09 20:45:16,1.2,-70.17,80.04,92,97,1.48,moderate rain,0.0,0.0
121,Seddon,AU,2020-05-09 20:46:46,-37.81,144.89,48.0,81,40,9.17,scattered clouds,0.0,0.0
122,Ekibastuz,KZ,2020-05-09 20:49:38,51.67,75.37,57.49,56,11,9.62,few clouds,0.0,0.0
123,Dera Bugti,PK,2020-05-09 20:49:38,29.03,69.15,86.63,18,0,5.39,clear sky,0.0,0.0
124,Laguna,US,2020-05-09 20:49:38,38.42,-121.42,89.01,27,1,8.05,clear sky,0.0,0.0
125,Esperance,AU,2020-05-09 20:49:39,-33.87,121.9,46.4,93,0,10.29,clear sky,0.0,0.0
126,Tasiilaq,GL,2020-05-09 20:49:39,65.61,-37.64,32.0,88,100,12.75,overcast clouds,0.0,0.0
127,Okhotsk,RU,2020-05-09 20:49:39,59.38,143.3,36.61,80,0,13.02,clear sky,0.0,0.0
128,Hovd,MN,2020-05-09 20:49:39,48.01,91.64,41.59,53,0,0.51,clear sky,0.0,0.0
129,Jijiga,ET,2020-05-09 20:49:40,9.35,42.8,66.04,83,55,3.74,broken clouds,0.0,0.0
130,Alice Springs,AU,2020-05-09 20:49:40,-23.7,133.88,48.2,61,60,1.12,broken clouds,0.0,0.0
131,Saldanha,ZA,2020-05-09 20:49:40,-33.01,17.94,60.8,72,0,2.24,clear sky,0.0,0.0
132,Lompoc,US,2020-05-09 20:46:28,34.64,-120.46,72.0,82,75,10.29,broken clouds,0.0,0.0
133,Saskylakh,RU,2020-05-09 20:49:41,71.92,114.08,20.55,97,100,14.5,snow,0.0,0.0
134,Guerrero Negro,MX,2020-05-09 20:49:41,27.98,-114.06,77.25,44,0,13.22,clear sky,0.0,0.0
135,Kochi,IN,2020-05-09 20:49:41,9.94,76.26,80.6,94,40,6.22,thunderstorm,0.0,0.0
136,Narsaq,GL,2020-05-09 20:49:41,60.92,-46.05,51.8,21,59,21.92,broken clouds,0.0,0.0
137,Longyearbyen,SJ,2020-05-09 20:49:41,78.22,15.64,17.6,61,20,16.11,few clouds,0.0,0.0
138,Makakilo City,US,2020-05-09 20:49:42,21.35,-158.09,82.4,54,75,14.99,broken clouds,0.0,0.0
139,Victoria,HK,2020-05-09 20:44:50,22.29,114.16,82.0,86,78,5.01,broken clouds,0.0,0.0
140,San Cristobal,VE,2020-05-09 20:49:42,7.77,-72.22,86.0,48,75,25.28,broken clouds,0.0,0.0
141,Sangmelima,CM,2020-05-09 20:49:42,2.93,11.98,69.46,94,90,0.29,light rain,0.0,0.0
142,Amapa,BR,2020-05-09 20:49:43,1.0,-52.0,78.6,95,67,3.09,moderate rain,0.0,0.0
143,Kaniama,CD,2020-05-09 20:49:43,-7.57,24.18,68.92,89,50,2.84,scattered clouds,0.0,0.0
144,Sao Felix Do Xingu,BR,2020-05-09 20:49:43,-6.64,-51.99,78.62,86,69,2.71,light rain,0.0,0.0
145,Trogir,HR,2020-05-09 20:49:43,43.51,16.25,61.0,58,39,3.36,scattered clouds,0.0,0.0
146,Cidreira,BR,2020-05-09 20:49:44,-30.18,-50.21,64.33,76,0,7.96,clear sky,0.0,0.0
147,Provideniya,RU,2020-05-09 20:49:44,64.38,-173.3,39.15,76,100,25.64,overcast clouds,0.0,0.0
148,Ridgecrest,US,2020-05-09 20:47:50,35.62,-117.67,93.2,9,1,9.17,clear sky,0.0,0.0
149,Hamilton,US,2020-05-09 20:45:44,39.18,-84.53,55.99,32,1,13.87,clear sky,0.0,0.0
150,Hokitika,NZ,2020-05-09 20:49:45,-42.72,170.97,53.85,80,88,4.61,overcast clouds,0.0,0.0
151,Salekhard,RU,2020-05-09 20:49:45,66.53,66.6,35.1,86,100,1.83,overcast clouds,0.0,0.0
152,Abha,SA,2020-05-09 20:49:45,18.22,42.51,69.8,82,1,1.12,clear sky,0.0,0.0
153,Cap Malheureux,MU,2020-05-09 20:49:45,-19.98,57.61,71.01,81,0,3.0,clear sky,0.0,0.0
154,Tortoli,IT,2020-05-09 20:49:46,39.93,9.66,64.4,93,40,12.75,scattered clouds,0.0,0.0
155,Sibolga,ID,2020-05-09 20:49:46,1.74,98.78,77.63,82,100,3.33,overcast clouds,0.0,0.0
156,Saint Charles,US,2020-05-09 20:49:37,38.78,-90.48,64.99,29,75,6.93,broken clouds,0.0,0.0
157,Bonthe,SL,2020-05-09 20:49:47,7.53,-12.51,81.37,86,100,6.46,light rain,0.0,0.0
158,Batemans Bay,AU,2020-05-09 20:48:39,-35.72,150.18,39.0,91,0,8.88,clear sky,0.0,0.0
159,Mikhaylovsk,RU,2020-05-09 20:49:47,45.13,42.03,46.4,65,76,11.18,broken clouds,0.0,0.0
160,Vostok,RU,2020-05-09 20:49:47,46.49,135.88,44.76,95,100,3.83,light rain,0.0,0.0
161,Bagru,IN,2020-05-09 20:49:48,26.81,75.54,91.17,17,68,7.47,broken clouds,0.0,0.0
162,Dutlwe,BW,2020-05-09 20:49:48,-23.98,23.9,62.24,43,0,9.08,clear sky,0.0,0.0
163,Hambantota,LK,2020-05-09 20:49:48,6.12,81.12,81.48,84,100,6.89,overcast clouds,0.0,0.0
164,Yellowknife,CA,2020-05-09 20:46:02,62.46,-114.35,33.8,50,40,10.29,scattered clouds,0.0,0.0
165,Kabalo,CD,2020-05-09 20:49:49,-6.05,26.92,71.29,92,2,3.8,clear sky,0.0,0.0
166,Haines Junction,CA,2020-05-09 20:49:49,60.75,-137.51,64.6,37,48,1.99,scattered clouds,0.0,0.0
167,Sobolevo,RU,2020-05-09 20:45:49,54.43,31.9,48.18,77,86,4.07,overcast clouds,0.0,0.0
168,Berlevag,NO,2020-05-09 20:49:49,70.86,29.09,31.57,90,97,5.61,overcast clouds,0.0,0.0
169,Vucje,RS,2020-05-09 20:49:50,42.87,21.91,60.8,55,1,4.7,clear sky,0.0,0.0
170,Kraliky,CZ,2020-05-09 20:49:50,50.08,16.76,57.0,71,100,3.83,overcast clouds,0.0,0.0
171,Lishui,CN,2020-05-09 20:49:50,28.46,119.91,74.05,89,100,2.71,light rain,0.0,0.0
172,Aswan,EG,2020-05-09 20:49:51,24.09,32.91,75.4,23,0,14.03,clear sky,0.0,0.0
173,Hofn,IS,2020-05-09 20:49:51,64.25,-15.21,33.91,76,100,9.95,overcast clouds,0.0,0.0
174,Hobyo,SO,2020-05-09 20:49:52,5.35,48.53,84.25,76,52,9.89,broken clouds,0.0,0.0
175,Chapais,CA,2020-05-09 20:49:52,49.78,-74.85,26.6,63,90,12.75,light snow,0.0,0.0
176,Kalmunai,LK,2020-05-09 20:49:52,7.42,81.82,80.62,82,100,3.27,overcast clouds,0.0,0.0
177,Port Hedland,AU,2020-05-09 20:49:52,-20.32,118.57,69.8,30,58,6.93,broken clouds,0.0,0.0
178,Peniche,PT,2020-05-09 20:45:28,39.36,-9.38,60.01,82,62,11.01,light rain,0.0,0.0
179,Alofi,NU,2020-05-09 20:49:53,-19.06,-169.92,82.4,83,44,9.17,scattered clouds,0.0,0.0
180,Aliwal North,ZA,2020-05-09 20:49:53,-30.69,26.71,52.25,42,0,1.5,clear sky,0.0,0.0
181,Xihe,CN,2020-05-09 20:49:53,31.69,113.47,56.88,87,40,5.55,scattered clouds,0.0,0.0
182,Hithadhoo,MV,2020-05-09 20:49:53,-0.6,73.08,84.67,78,94,12.66,light rain,0.0,0.0
183,Estevan,CA,2020-05-09 20:49:54,49.13,-102.98,46.99,39,75,6.93,broken clouds,0.0,0.0
184,Beringovskiy,RU,2020-05-09 20:49:54,63.05,179.32,33.03,95,100,36.62,snow,0.0,0.0
185,Emilio Carranza,MX,2020-05-09 20:49:54,19.97,-96.61,83.32,66,3,20.42,clear sky,0.0,0.0
186,Margate,GB,2020-05-09 20:49:54,51.38,1.39,57.99,79,61,13.2,broken clouds,0.0,0.0
187,La Ronge,CA,2020-05-09 20:49:55,55.1,-105.28,44.6,28,20,9.17,few clouds,0.0,0.0
188,Kruisfontein,ZA,2020-05-09 20:45:18,-34.0,24.73,58.95,80,0,3.96,clear sky,0.0,0.0
189,Lithakia,GR,2020-05-09 20:49:55,37.72,20.83,55.4,82,0,2.91,clear sky,0.0,0.0
190,Alyangula,AU,2020-05-09 20:49:55,-13.85,136.42,73.4,100,0,10.8,clear sky,0.0,0.0
191,Rapid Valley,US,2020-05-09 20:49:56,44.06,-103.15,46.4,49,90,34.45,overcast clouds,0.0,0.0
192,Sao Joao Da Barra,BR,2020-05-09 20:49:56,-21.64,-41.05,75.2,64,40,6.93,scattered clouds,0.0,0.0
193,Aberystwyth,GB,2020-05-09 20:49:56,52.42,-4.08,61.0,71,100,4.0,overcast clouds,0.0,0.0
194,Luderitz,NA,2020-05-09 20:49:56,-26.65,15.16,60.8,77,0,3.36,clear sky,0.0,0.0
195,Tairua,NZ,2020-05-09 20:49:56,-37.02,175.85,62.01,81,95,10.0,light rain,0.0,0.0
196,Pemba,MZ,2020-05-09 20:49:57,-12.97,40.52,76.39,77,23,17.54,few clouds,0.0,0.0
197,Nouadhibou,MR,2020-05-09 20:49:57,20.93,-17.03,67.46,77,28,25.12,scattered clouds,0.0,0.0
198,Vestmanna,FO,2020-05-09 20:49:57,62.16,-7.17,32.0,88,20,18.34,few clouds,0.0,0.0
199,Vostochnyy,RU,2020-05-09 20:49:57,55.82,37.87,53.6,66,100,4.47,overcast clouds,0.0,0.0
200,Tura,IN,2020-05-09 20:49:58,25.52,90.22,74.43,41,0,3.33,clear sky,0.0,0.0
201,Torbay,CA,2020-05-09 20:49:58,47.67,-52.73,45.0,85,90,25.28,overcast clouds,0.0,0.0
202,Georgetown,MY,2020-05-09 20:49:58,5.41,100.34,80.6,100,20,3.36,few clouds,0.0,0.0
203,Uvinza,TZ,2020-05-09 20:49:58,-5.1,30.39,65.97,85,0,3.36,clear sky,0.0,0.0
204,Dovers,VC,2020-05-09 20:49:58,12.88,-61.18,82.4,69,20,13.87,few clouds,0.0,0.0
205,Caravelas,BR,2020-05-09 20:49:59,-17.71,-39.25,71.51,73,22,9.71,few clouds,0.0,0.0
206,Olafsvik,IS,2020-05-09 20:49:59,64.89,-23.71,37.9,68,0,1.9,clear sky,0.0,0.0
207,Imbituba,BR,2020-05-09 20:49:59,-28.24,-48.67,71.6,60,0,16.11,clear sky,0.0,0.0
208,Port Elizabeth,ZA,2020-05-09 20:49:59,-33.92,25.57,60.8,100,0,3.36,fog,0.0,0.0
209,Guarapari,BR,2020-05-09 20:50:00,-20.67,-40.5,73.4,60,7,4.7,clear sky,0.0,0.0
210,Aksarka,RU,2020-05-09 20:50:00,66.56,67.8,35.83,84,100,5.26,overcast clouds,0.0,0.0
211,Bandarbeyla,SO,2020-05-09 20:50:00,9.49,50.81,82.62,75,0,9.19,clear sky,0.0,0.0
212,Kysyl-Syr,RU,2020-05-09 20:45:07,63.9,122.76,20.79,95,5,5.39,clear sky,0.0,0.0
213,Antalaha,MG,2020-05-09 20:50:01,-14.9,50.28,74.1,83,99,8.23,overcast clouds,0.0,0.0
214,Umba,RU,2020-05-09 20:50:01,66.69,34.34,36.7,96,100,9.33,light rain,0.0,0.0
215,East London,ZA,2020-05-09 20:50:01,-33.02,27.91,65.89,82,17,7.47,few clouds,0.0,0.0
216,Xichang,CN,2020-05-09 20:50:02,27.9,102.26,57.22,70,3,2.53,clear sky,0.0,0.0
217,Cherskiy,RU,2020-05-09 20:50:02,68.75,161.3,38.93,75,100,8.12,overcast clouds,0.0,0.0
218,Ishikari,JP,2020-05-09 20:50:02,43.24,141.35,54.0,45,100,5.99,overcast clouds,0.0,0.0
219,Kloulklubed,PW,2020-05-09 20:50:02,7.04,134.26,78.8,88,90,9.17,light intensity shower rain,0.0,0.0
220,Banda Aceh,ID,2020-05-09 20:50:03,5.56,95.32,78.13,88,100,8.9,overcast clouds,0.0,0.0
221,Constantine,DZ,2020-05-09 20:45:07,36.37,6.61,64.4,82,40,3.36,scattered clouds,0.0,0.0
222,Cayenne,GF,2020-05-09 20:50:03,4.93,-52.33,78.8,94,57,4.7,light rain,0.0,0.0
223,Codrington,AU,2020-05-09 20:50:03,-38.27,141.97,46.09,78,82,7.99,broken clouds,0.0,0.0
224,Mersing,MY,2020-05-09 20:50:03,2.43,103.84,77.0,100,99,4.7,overcast clouds,0.0,0.0
225,Cairns,AU,2020-05-09 20:50:04,-16.92,145.77,73.4,78,37,6.93,scattered clouds,0.0,0.0
226,Umm Lajj,SA,2020-05-09 20:50:04,25.02,37.27,75.87,55,100,10.78,overcast clouds,0.0,0.0
227,Axim,GH,2020-05-09 20:50:04,4.87,-2.24,81.23,87,2,7.96,light rain,0.0,0.0
228,Agustin Codazzi,CO,2020-05-09 20:50:04,10.03,-73.24,100.4,35,20,5.82,few clouds,0.0,0.0
229,Padang,ID,2020-05-09 20:50:05,-0.95,100.35,79.11,71,90,3.36,overcast clouds,0.0,0.0
230,Nanortalik,GL,2020-05-09 20:50:05,60.14,-45.24,43.11,62,62,15.77,broken clouds,0.0,0.0
231,Odweyne,SO,2020-05-09 20:50:05,9.41,45.06,76.57,63,58,3.96,broken clouds,0.0,0.0
232,Novobelokatay,RU,2020-05-09 20:50:05,55.71,58.95,60.15,52,90,7.23,overcast clouds,0.0,0.0
233,Mount Gambier,AU,2020-05-09 20:50:05,-37.83,140.77,41.0,93,75,4.81,broken clouds,0.0,0.0
234,Moroni,KM,2020-05-09 20:50:06,-11.7,43.26,79.05,80,95,14.54,light rain,0.0,0.0
235,Kavieng,PG,2020-05-09 20:50:06,-2.57,150.8,83.57,78,3,9.37,clear sky,0.0,0.0
236,Portland,US,2020-05-09 20:48:47,45.52,-122.68,86.0,23,75,23.04,broken clouds,0.0,0.0
237,Vung Tau,VN,2020-05-09 20:50:06,10.35,107.08,83.57,77,100,8.88,overcast clouds,0.0,0.0
238,Carnarvon,AU,2020-05-09 20:50:07,-24.87,113.63,75.06,42,100,13.47,overcast clouds,0.0,0.0
239,Gravdal,NO,2020-05-09 20:50:07,68.12,13.5,33.55,81,78,9.98,broken clouds,0.0,0.0
240,Nouakchott,MR,2020-05-09 20:50:07,18.09,-15.98,75.2,60,47,19.46,sand,0.0,0.0
241,Katiola,CI,2020-05-09 20:50:07,8.13,-5.1,82.4,78,20,4.7,few clouds,0.0,0.0
242,Muros,ES,2020-05-09 20:50:08,42.78,-9.06,57.99,88,51,5.99,broken clouds,0.0,0.0
243,Teya,RU,2020-05-09 20:50:08,60.38,92.63,53.89,74,100,5.68,overcast clouds,0.0,0.0
244,Ormara,PK,2020-05-09 20:50:08,25.21,64.64,81.86,81,11,8.68,few clouds,0.0,0.0
245,Sokolo,ML,2020-05-09 20:50:08,14.73,-6.12,95.34,20,4,9.22,clear sky,0.0,0.0
246,Qingdao,CN,2020-05-09 20:50:08,36.1,120.37,59.0,93,90,2.24,mist,0.0,0.0
247,Zabid,YE,2020-05-09 20:50:09,14.2,43.32,91.51,41,20,8.21,few clouds,0.0,0.0
248,Pagudpud,PH,2020-05-09 20:50:09,18.56,120.79,79.54,69,6,3.8,clear sky,0.0,0.0
249,Santa Rosa,PH,2020-05-09 20:50:09,14.31,121.11,82.4,74,20,1.12,few clouds,0.0,0.0
250,Kavaratti,IN,2020-05-09 20:50:09,10.57,72.64,85.42,72,0,9.08,clear sky,0.0,0.0
251,Bengkulu,ID,2020-05-09 20:50:10,-3.8,102.27,76.19,92,100,5.32,light rain,0.0,0.0
252,Husavik,IS,2020-05-09 20:50:11,66.04,-17.34,33.8,78,0,10.29,clear sky,0.0,0.0
253,Norman Wells,CA,2020-05-09 20:50:11,65.28,-126.83,46.4,49,5,17.22,clear sky,0.0,0.0
254,Quatre Cocos,MU,2020-05-09 20:50:12,-20.21,57.76,73.4,83,40,9.17,scattered clouds,0.0,0.0
255,Sakakah,SA,2020-05-09 20:50:12,29.97,40.21,71.6,30,0,14.99,clear sky,0.0,0.0
256,Mawlaik,MM,2020-05-09 20:50:12,23.63,94.42,76.12,50,7,1.61,clear sky,0.0,0.0
257,Kisanga,TZ,2020-05-09 20:50:12,-7.44,37.7,71.47,81,31,3.76,scattered clouds,0.0,0.0
258,Kyzyl-Suu,KG,2020-05-09 20:50:12,42.34,78.0,50.45,55,98,4.45,overcast clouds,0.0,0.0
259,Faranah,GN,2020-05-09 20:50:13,10.04,-10.74,77.94,81,97,4.61,light rain,0.0,0.0
260,Belaya Gora,RU,2020-05-09 20:50:13,68.53,146.42,31.75,97,93,8.75,overcast clouds,0.0,0.0
261,Salym,RU,2020-05-09 20:50:13,60.06,71.48,58.44,60,0,5.55,clear sky,0.0,0.0
262,Qaanaaq,GL,2020-05-09 20:50:14,77.48,-69.36,13.08,86,56,3.2,broken clouds,0.0,0.0
263,Mokhsogollokh,RU,2020-05-09 20:50:14,61.47,128.92,25.86,92,0,4.5,clear sky,0.0,0.0
264,Hasaki,JP,2020-05-09 20:50:15,35.73,140.83,66.0,88,75,6.93,light rain,0.0,0.0
265,Bardiyah,LY,2020-05-09 20:50:15,31.76,25.09,62.96,74,0,9.51,clear sky,0.0,0.0
266,Ryotsu,JP,2020-05-09 20:50:15,38.08,138.43,55.4,93,90,2.24,light rain,0.0,0.0
267,Mangaluru,IN,2020-05-09 20:50:16,12.87,74.88,82.9,79,74,1.97,broken clouds,0.0,0.0
268,Lazarev,RU,2020-05-09 20:50:16,52.23,141.51,33.57,92,0,5.79,clear sky,0.0,0.0
269,Miramar,US,2020-05-09 20:50:16,25.99,-80.23,84.2,54,1,12.75,clear sky,0.0,0.0
270,Samarai,PG,2020-05-09 20:50:16,-10.62,150.67,80.58,81,96,14.54,overcast clouds,0.0,0.0
271,Stykkisholmur,IS,2020-05-09 20:50:17,65.08,-22.73,38.21,65,0,1.68,clear sky,0.0,0.0
272,Lagoa,PT,2020-05-09 20:50:17,39.05,-27.98,63.66,88,100,25.08,overcast clouds,0.0,0.0
273,Zhigansk,RU,2020-05-09 20:50:17,66.77,123.37,14.59,96,22,8.86,few clouds,0.0,0.0
274,Williston,US,2020-05-09 20:50:17,48.15,-103.62,44.01,56,87,5.01,overcast clouds,0.0,0.0
275,Aklavik,CA,2020-05-09 20:50:17,68.22,-135.01,41.0,56,20,17.22,few clouds,0.0,0.0
276,Nikolskoye,RU,2020-05-09 20:50:18,59.7,30.79,42.8,56,0,4.47,clear sky,0.0,0.0
277,Nalut,LY,2020-05-09 20:50:18,30.33,10.85,87.85,12,84,15.97,broken clouds,0.0,0.0
278,Westport,US,2020-05-09 20:46:21,41.14,-73.36,48.2,24,75,26.4,broken clouds,0.0,0.0
279,Sitka,US,2020-05-09 20:50:18,57.05,-135.33,66.2,29,75,11.41,broken clouds,0.0,0.0
280,Birjand,IR,2020-05-09 20:50:18,32.87,59.22,60.8,29,36,6.93,scattered clouds,0.0,0.0
281,Zhezkazgan,KZ,2020-05-09 20:50:19,47.8,67.71,57.87,82,7,6.49,clear sky,0.0,0.0
282,Amudat,UG,2020-05-09 20:50:19,1.95,34.95,70.56,76,100,5.7,overcast clouds,0.0,0.0
283,Rantauprapat,ID,2020-05-09 20:50:19,2.1,99.83,75.2,94,100,0.94,overcast clouds,0.0,0.0
284,Severo-Kurilsk,RU,2020-05-09 20:45:48,50.68,156.12,33.37,91,96,18.25,overcast clouds,0.0,0.0
285,Agirish,RU,2020-05-09 20:50:20,61.92,63.02,58.46,57,0,5.91,clear sky,0.0,0.0
286,Flin Flon,CA,2020-05-09 20:50:20,54.77,-101.86,41.0,35,75,10.29,broken clouds,0.0,0.0
287,Inhambane,MZ,2020-05-09 20:50:20,-23.86,35.38,69.13,84,9,10.94,light rain,0.0,0.0
288,Ahuimanu,US,2020-05-09 20:50:20,21.44,-157.84,86.0,51,20,12.75,few clouds,0.0,0.0
289,Anchorage,US,2020-05-09 20:48:50,61.22,-149.9,57.99,41,1,13.87,clear sky,0.0,0.0
290,Nuevo Progreso,MX,2020-05-09 20:46:05,23.17,-97.95,82.99,63,100,7.0,overcast clouds,0.0,0.0
291,Lasa,IT,2020-05-09 20:50:21,46.62,10.7,55.4,76,40,6.93,scattered clouds,0.0,0.0
292,Gwadar,PK,2020-05-09 20:50:22,25.12,62.33,83.46,69,99,7.34,overcast clouds,0.0,0.0
293,Mutata,CO,2020-05-09 20:50:22,7.24,-76.44,85.12,78,100,0.78,moderate rain,0.0,0.0
294,Hurghada,EG,2020-05-09 20:47:33,27.26,33.81,77.0,41,0,4.7,clear sky,0.0,0.0
295,Innisfail,AU,2020-05-09 20:45:33,-17.53,146.03,68.14,91,34,5.08,scattered clouds,0.0,0.0
296,Kyra,RU,2020-05-09 20:50:23,49.58,111.98,31.41,85,0,8.5,clear sky,0.0,0.0
297,Lodwar,KE,2020-05-09 20:50:23,3.12,35.6,86.86,47,94,15.82,light rain,0.0,0.0
298,Toora-Khem,RU,2020-05-09 20:50:23,52.47,96.11,35.31,78,0,1.45,clear sky,0.0,0.0
299,Bokoro,TD,2020-05-09 20:50:23,12.38,17.06,92.95,10,0,11.07,clear sky,0.0,0.0
300,Klaksvik,FO,2020-05-09 20:50:24,62.23,-6.59,32.0,84,39,18.34,scattered clouds,0.0,0.0
301,Carballo,ES,2020-05-09 20:50:24,43.21,-8.69,59.0,73,98,1.99,overcast clouds,0.0,0.0
302,Pidsandawan,PH,2020-05-09 20:50:24,6.93,124.59,76.3,93,99,0.6,overcast clouds,0.0,0.0
303,Severnyy,RU,2020-05-09 20:50:24,50.68,36.55,44.6,81,40,4.47,scattered clouds,0.0,0.0
304,Severo-Yeniseyskiy,RU,2020-05-09 20:50:25,60.37,93.04,50.54,82,100,7.11,overcast clouds,0.0,0.0
305,Kyabe,TD,2020-05-09 20:50:25,9.45,18.94,82.65,56,98,4.88,overcast clouds,0.0,0.0
306,Calatayud,ES,2020-05-09 20:50:25,41.35,-1.64,66.2,88,20,1.12,few clouds,0.0,0.0
307,Daru,PG,2020-05-09 20:50:26,-9.08,143.21,80.26,85,54,15.68,light rain,0.0,0.0
308,Honiara,SB,2020-05-09 20:50:26,-9.43,159.95,78.8,94,40,2.24,scattered clouds,0.0,0.0
309,Lake City,US,2020-05-09 20:50:01,30.19,-82.64,79.0,33,1,5.82,clear sky,0.0,0.0
310,Saint-Francois,FR,2020-05-09 20:50:27,46.42,3.91,66.2,48,39,8.05,scattered clouds,0.0,0.0
311,Miura,JP,2020-05-09 20:50:27,35.14,139.62,66.99,92,84,8.01,broken clouds,0.0,0.0
312,Marienburg,PL,2020-05-09 20:50:27,54.04,19.03,48.99,100,0,2.24,clear sky,0.0,0.0
313,Clyde River,CA,2020-05-09 20:50:27,70.47,-68.59,14.0,85,75,13.87,broken clouds,0.0,0.0
314,Turukhansk,RU,2020-05-09 20:50:27,65.82,87.98,32.16,93,100,7.54,overcast clouds,0.0,0.0
315,Cabra,ES,2020-05-09 20:50:28,37.47,-4.44,62.01,68,84,3.0,broken clouds,0.0,0.0
316,Saint George,US,2020-05-09 20:50:28,37.1,-113.58,90.0,9,1,3.36,clear sky,0.0,0.0
317,College,US,2020-05-09 20:46:43,64.86,-147.8,66.0,35,75,4.7,broken clouds,0.0,0.0
318,Kutum,SD,2020-05-09 20:50:28,14.2,24.67,71.98,16,0,8.66,clear sky,0.0,0.0
319,Ballarat,AU,2020-05-09 20:50:29,-37.57,143.85,42.01,81,25,3.0,scattered clouds,0.0,0.0
320,Leningradskiy,RU,2020-05-09 20:50:29,69.38,178.42,24.85,95,100,7.7,overcast clouds,0.0,0.0
321,Namibe,AO,2020-05-09 20:50:29,-15.2,12.15,80.83,53,17,3.18,few clouds,0.0,0.0
322,Goderich,CA,2020-05-09 20:50:29,43.75,-81.72,42.01,67,46,8.12,scattered clouds,0.0,0.0
323,Glendive,US,2020-05-09 20:50:30,47.11,-104.71,46.0,50,75,13.87,broken clouds,0.0,0.0
324,Tarija,BO,2020-05-09 20:47:48,-21.54,-64.73,73.54,49,0,6.2,clear sky,0.0,0.0
325,Bubaque,GW,2020-05-09 20:50:30,11.28,-15.83,77.43,80,1,15.66,clear sky,0.0,0.0
326,Pedernales,DO,2020-05-09 20:50:30,18.04,-71.74,88.48,50,100,13.56,overcast clouds,0.0,0.0
327,Richards Bay,ZA,2020-05-09 20:50:30,-28.78,32.04,65.82,91,0,3.98,clear sky,0.0,0.0
328,Gat,IL,2020-05-09 20:50:02,31.61,34.76,66.99,76,10,3.06,clear sky,0.0,0.0
329,Deqing,CN,2020-05-09 20:50:31,30.54,119.96,69.01,69,100,1.86,overcast clouds,0.0,0.0
330,Tuatapere,NZ,2020-05-09 20:50:01,-46.13,167.68,53.62,82,86,6.69,overcast clouds,0.0,0.0
331,Energetik,RU,2020-05-09 20:50:31,51.74,58.79,56.7,90,100,1.41,overcast clouds,0.0,0.0
332,Vestmannaeyjar,IS,2020-05-09 20:50:31,63.44,-20.27,37.74,78,34,13.09,scattered clouds,0.0,0.0
333,Fare,PF,2020-05-09 20:50:32,-16.7,-151.02,81.99,77,0,17.63,clear sky,0.0,0.0
334,Honningsvag,NO,2020-05-09 20:50:32,70.98,25.97,35.28,79,95,11.39,overcast clouds,0.0,0.0
335,Boa Vista,BR,2020-05-09 20:50:32,2.82,-60.67,89.6,52,40,10.29,scattered clouds,0.0,0.0
336,Luanda,AO,2020-05-09 20:50:32,-8.84,13.23,80.6,88,20,2.24,few clouds,0.0,0.0
337,Taoudenni,ML,2020-05-09 20:50:33,22.68,-3.98,98.96,11,19,8.48,few clouds,0.0,0.0
338,Ulvik,NO,2020-05-09 20:50:33,60.57,6.92,39.99,90,98,2.77,snow,0.0,0.0
339,Mayuge,UG,2020-05-09 20:50:33,0.46,33.48,66.18,95,100,9.1,moderate rain,0.0,0.0
340,Kabinda,CD,2020-05-09 20:50:33,-6.13,24.48,70.45,88,45,3.67,scattered clouds,0.0,0.0
341,Sao Filipe,CV,2020-05-09 20:50:34,14.9,-24.5,74.77,74,95,9.91,overcast clouds,0.0,0.0
342,Nantucket,US,2020-05-09 20:50:14,41.28,-70.1,48.2,29,75,32.21,broken clouds,0.0,0.0
343,Coquimbo,CL,2020-05-09 20:50:34,-29.95,-71.34,57.2,82,75,6.93,broken clouds,0.0,0.0
344,Saint-Augustin,CA,2020-05-09 20:50:34,51.23,-58.65,37.17,81,99,6.62,overcast clouds,0.0,0.0
345,Presidente Epitacio,BR,2020-05-09 20:50:34,-21.76,-52.12,68.83,64,0,3.4,clear sky,0.0,0.0
346,Ketchikan,US,2020-05-09 20:47:13,55.34,-131.65,75.2,23,1,17.22,clear sky,0.0,0.0
347,Sola,VU,2020-05-09 20:50:35,-13.88,167.55,80.24,78,22,16.93,few clouds,0.0,0.0
348,Southbridge,US,2020-05-09 20:50:35,42.08,-72.03,41.0,34,100,5.99,overcast clouds,0.0,0.0
349,Natal,BR,2020-05-09 20:46:16,-5.79,-35.21,80.6,78,40,10.29,scattered clouds,0.0,0.0
350,Nemuro,JP,2020-05-09 20:50:37,43.32,145.57,46.54,74,100,10.92,overcast clouds,0.0,0.0
351,Igrim,RU,2020-05-09 20:50:37,63.19,64.42,52.41,90,39,5.57,scattered clouds,0.0,0.0
352,Henties Bay,NA,2020-05-09 20:50:37,-22.12,14.28,70.07,50,0,8.03,clear sky,0.0,0.0
353,Trinidad,BO,2020-05-09 20:50:37,-14.83,-64.9,82.4,48,6,4.7,clear sky,0.0,0.0
354,Gravelbourg,CA,2020-05-09 20:50:38,49.88,-106.55,43.81,65,94,9.26,light rain,0.0,0.0
355,Wanning,CN,2020-05-09 20:50:38,18.8,110.4,79.77,92,23,9.73,few clouds,0.0,0.0
356,Berezovyy,RU,2020-05-09 20:50:38,51.67,135.7,45.14,62,0,0.54,clear sky,0.0,0.0
357,Marzuq,YE,2020-05-09 20:50:39,14.4,46.47,78.48,27,32,5.61,scattered clouds,0.0,0.0
358,Parkes,AU,2020-05-09 20:50:39,-33.13,148.18,42.01,86,0,5.79,clear sky,0.0,0.0
359,Catuday,PH,2020-05-09 20:50:39,16.29,119.81,82.4,76,80,7.7,broken clouds,0.0,0.0
360,Zavodoukovsk,RU,2020-05-09 20:50:39,56.5,66.55,61.45,38,49,9.13,scattered clouds,0.0,0.0
361,Campo,PT,2020-05-09 20:50:39,41.19,-8.46,55.99,93,20,5.82,light rain,0.0,0.0
362,Loon,PH,2020-05-09 20:50:40,9.8,123.79,80.6,83,20,1.12,few clouds,0.0,0.0
363,Byron Bay,AU,2020-05-09 20:50:08,-28.65,153.62,61.0,93,0,2.24,clear sky,0.0,0.0
364,Gulu,UG,2020-05-09 20:50:41,2.77,32.3,66.06,99,100,6.17,light rain,0.0,0.0
365,Ronne,DK,2020-05-09 20:50:41,55.1,14.71,46.4,93,24,2.24,few clouds,0.0,0.0
366,Sarab,IR,2020-05-09 20:50:41,38.61,44.99,58.3,73,100,6.87,light rain,0.0,0.0
367,Roald,NO,2020-05-09 20:50:42,62.58,6.13,39.0,87,98,16.11,light snow,0.0,0.0
368,Slave Lake,CA,2020-05-09 20:50:42,55.28,-114.77,44.6,45,75,6.93,broken clouds,0.0,0.0
369,Tailai,CN,2020-05-09 20:50:43,46.38,123.4,55.4,45,19,9.06,few clouds,0.0,0.0
370,Billings,US,2020-05-09 20:47:06,45.78,-108.5,55.99,25,75,3.36,broken clouds,0.0,0.0
371,Kropotkin,RU,2020-05-09 20:50:43,45.44,40.58,45.0,87,0,12.5,clear sky,0.0,0.0
372,Mongagua,BR,2020-05-09 20:50:43,-24.09,-46.62,73.4,64,0,8.05,clear sky,0.0,0.0
373,Port-Gentil,GA,2020-05-09 20:50:43,-0.72,8.78,80.6,94,40,8.05,scattered clouds,0.0,0.0
374,Puerto Carreno,CO,2020-05-09 20:50:44,6.19,-67.49,91.4,52,40,8.05,scattered clouds,0.0,0.0
375,Sept-Iles,CA,2020-05-09 20:50:44,50.2,-66.38,44.01,65,75,6.93,broken clouds,0.0,0.0
376,Arica,CL,2020-05-09 20:47:43,-18.48,-70.3,68.0,72,17,10.29,few clouds,0.0,0.0
377,Mana,GF,2020-05-09 20:50:44,5.66,-53.78,79.43,83,100,10.56,overcast clouds,0.0,0.0
378,Aykhal,RU,2020-05-09 20:50:45,66.0,111.5,32.0,94,90,8.95,light shower snow,0.0,0.0
379,Camacha,PT,2020-05-09 20:50:45,33.08,-16.33,66.2,77,75,13.87,broken clouds,0.0,0.0
380,Lac Du Bonnet,CA,2020-05-09 20:50:45,50.25,-96.06,43.0,41,100,21.0,overcast clouds,0.0,0.0
381,Varzea Alegre,BR,2020-05-09 20:50:45,-5.35,-40.38,73.56,73,25,5.41,scattered clouds,0.0,0.0
382,Mahon,ES,2020-05-09 20:50:45,39.89,4.27,64.4,88,2,6.93,clear sky,0.0,0.0
383,Maksatikha,RU,2020-05-09 20:50:46,57.8,35.88,44.51,78,14,3.62,few clouds,0.0,0.0
384,Upington,ZA,2020-05-09 20:50:46,-28.45,21.26,66.2,32,0,3.36,clear sky,0.0,0.0
385,Yafran,LY,2020-05-09 20:50:46,32.06,12.53,82.0,19,92,24.92,overcast clouds,0.0,0.0
386,Kenai,US,2020-05-09 20:50:47,60.55,-151.26,57.2,41,1,20.8,clear sky,0.0,0.0
387,Kharp,RU,2020-05-09 20:50:47,66.8,65.81,32.9,88,100,1.39,overcast clouds,0.0,0.0
388,Katsuura,JP,2020-05-09 20:50:47,35.13,140.3,66.0,92,78,8.01,broken clouds,0.0,0.0
389,Dese,ET,2020-05-09 20:50:48,11.13,39.63,55.09,77,84,1.03,broken clouds,0.0,0.0
390,Luang Prabang,LA,2020-05-09 20:50:48,19.89,102.13,75.11,86,100,0.65,overcast clouds,0.0,0.0
391,Arona,ES,2020-05-09 20:50:48,28.1,-16.68,71.01,73,20,1.12,few clouds,0.0,0.0
392,Mogocha,RU,2020-05-09 20:50:31,53.73,119.77,34.56,86,99,3.02,overcast clouds,0.0,0.0
393,Umm Kaddadah,SD,2020-05-09 20:50:49,13.6,26.69,84.24,11,71,15.43,broken clouds,0.0,0.0
394,Grindavik,IS,2020-05-09 20:50:49,63.84,-22.43,41.0,41,20,6.93,few clouds,0.0,0.0
395,Beyneu,KZ,2020-05-09 20:50:49,45.32,55.2,67.1,56,38,14.25,scattered clouds,0.0,0.0
396,Auki,SB,2020-05-09 20:50:49,-8.77,160.7,81.86,79,67,5.37,broken clouds,0.0,0.0
397,Mackenzie,CA,2020-05-09 20:50:50,55.3,-123.17,59.0,38,1,12.75,clear sky,0.0,0.0
398,Grenaa,DK,2020-05-09 20:50:50,56.42,10.88,51.8,71,20,2.24,few clouds,0.0,0.0
399,Chingirlau,KZ,2020-05-09 20:50:50,51.09,54.08,58.66,86,97,10.45,overcast clouds,0.0,0.0
400,Melioratorov,RU,2020-05-09 20:50:50,57.21,65.61,62.6,45,61,6.71,broken clouds,0.0,0.0
401,Riberalta,BO,2020-05-09 20:50:51,-10.98,-66.1,85.33,57,18,1.1,few clouds,0.0,0.0
402,Ancud,CL,2020-05-09 20:50:51,-41.87,-73.82,53.01,93,75,17.22,broken clouds,0.0,0.0
403,Zvishavane,ZW,2020-05-09 20:50:51,-20.33,30.07,54.61,88,0,2.98,clear sky,0.0,0.0
404,Petauke,ZM,2020-05-09 20:50:51,-14.24,31.33,60.12,76,46,6.91,scattered clouds,0.0,0.0
405,Lata,PT,2020-05-09 20:46:38,40.16,-8.33,59.0,90,29,1.01,scattered clouds,0.0,0.0
406,Canaries,ES,2020-05-09 20:50:52,28.0,-15.5,69.8,64,40,18.34,scattered clouds,0.0,0.0
407,Caracuaro,MX,2020-05-09 20:50:52,19.01,-101.13,102.97,17,4,6.55,clear sky,0.0,0.0
408,Springbok,ZA,2020-05-09 20:50:52,-29.66,17.89,67.69,24,0,11.34,clear sky,0.0,0.0
409,Paamiut,GL,2020-05-09 20:50:53,61.99,-49.67,42.71,64,92,5.57,overcast clouds,0.0,0.0
410,Tilichiki,RU,2020-05-09 20:50:53,60.47,166.1,31.87,100,100,10.22,overcast clouds,0.0,0.0
411,Ishinomaki,JP,2020-05-09 20:50:53,38.42,141.3,59.0,93,75,3.36,broken clouds,0.0,0.0
412,Cockburn Town,TC,2020-05-09 20:50:53,21.46,-71.14,81.36,82,30,14.05,scattered clouds,0.0,0.0
413,Pervomayskoye,RU,2020-05-09 20:50:54,43.92,46.71,52.47,87,100,6.98,light rain,0.0,0.0
414,Popondetta,PG,2020-05-09 20:50:54,-8.75,148.25,75.69,86,85,2.28,overcast clouds,0.0,0.0
415,North Bend,US,2020-05-09 20:50:32,43.41,-124.22,73.0,82,20,11.41,few clouds,0.0,0.0
416,Vigrestad,NO,2020-05-09 20:50:54,58.57,5.7,44.6,75,75,8.05,light rain,0.0,0.0
417,Maningrida,AU,2020-05-09 20:50:55,-12.07,134.27,73.27,88,8,8.12,clear sky,0.0,0.0
418,Krasnyy Yar,RU,2020-05-09 20:50:55,46.53,48.35,57.2,62,98,11.18,overcast clouds,0.0,0.0
419,Palana,RU,2020-05-09 20:50:55,59.12,159.97,29.34,100,100,15.32,snow,0.0,0.0
420,Zaigrayevo,RU,2020-05-09 20:50:55,51.83,108.27,32.0,86,20,2.24,few clouds,0.0,0.0
421,Sur,OM,2020-05-09 20:50:56,22.57,59.53,85.35,40,0,5.03,clear sky,0.0,0.0
422,Vao,NC,2020-05-09 20:50:56,-22.67,167.48,72.32,73,30,13.53,scattered clouds,0.0,0.0
423,Atbasar,KZ,2020-05-09 20:50:56,51.8,68.33,61.0,43,62,12.01,broken clouds,0.0,0.0
424,Buique,BR,2020-05-09 20:50:56,-8.62,-37.16,68.99,73,89,7.38,overcast clouds,0.0,0.0
425,Khasan,RU,2020-05-09 20:50:56,42.43,130.64,50.77,98,100,2.75,moderate rain,0.0,0.0
426,Brownwood,US,2020-05-09 20:50:57,31.71,-98.99,75.2,36,1,4.7,clear sky,0.0,0.0
427,Pombas,CV,2020-05-09 20:50:57,17.15,-25.02,75.2,64,75,29.97,broken clouds,0.0,0.0
428,Nivala,FI,2020-05-09 20:50:57,63.92,24.97,34.0,75,0,4.0,clear sky,0.0,0.0
429,Felipe Carrillo Puerto,MX,2020-05-09 20:50:57,19.58,-88.05,90.21,54,82,7.7,light rain,0.0,0.0
430,Orthez,FR,2020-05-09 20:50:58,43.49,-0.77,68.0,77,55,10.29,light rain,0.0,0.0
431,Mapiripan,CO,2020-05-09 20:50:58,2.89,-72.13,81.43,79,100,2.82,light rain,0.0,0.0
432,Sibu,MY,2020-05-09 20:50:58,2.3,111.82,78.8,94,75,3.36,broken clouds,0.0,0.0
433,Kampong Thum,KH,2020-05-09 20:50:58,12.71,104.89,83.89,67,100,10.13,overcast clouds,0.0,0.0
434,San Carlos De Bariloche,AR,2020-05-09 20:50:58,-41.15,-71.31,48.99,87,75,14.99,moderate rain,0.0,0.0
435,Maryville,US,2020-05-09 20:50:59,35.76,-83.97,63.0,30,1,4.7,clear sky,0.0,0.0
436,Clinton,US,2020-05-09 20:50:59,42.59,-82.92,48.99,36,75,14.99,broken clouds,0.0,0.0
437,Lantana,US,2020-05-09 20:50:59,26.59,-80.05,86.0,35,75,9.17,broken clouds,0.0,0.0
438,Iqaluit,CA,2020-05-09 20:50:59,63.75,-68.51,39.2,69,75,5.82,broken clouds,0.0,0.0
439,Port Hardy,CA,2020-05-09 20:50:59,50.7,-127.42,64.4,52,75,4.7,broken clouds,0.0,0.0
440,Poya,NC,2020-05-09 20:51:00,-21.35,165.15,71.58,74,13,2.73,few clouds,0.0,0.0
441,Saurimo,AO,2020-05-09 20:50:51,-9.66,20.39,67.78,74,24,2.24,few clouds,0.0,0.0
442,Sinnamary,GF,2020-05-09 20:51:00,5.38,-52.95,79.45,85,99,11.68,light rain,0.0,0.0
443,Port Lincoln,AU,2020-05-09 20:51:00,-34.73,135.87,54.36,70,10,8.25,clear sky,0.0,0.0
444,Teeli,RU,2020-05-09 20:51:01,51.03,90.23,43.27,51,0,0.87,clear sky,0.0,0.0
445,Maragogi,BR,2020-05-09 20:47:24,-9.01,-35.22,77.83,75,83,7.07,broken clouds,0.0,0.0
446,Salalah,OM,2020-05-09 20:51:01,17.02,54.09,82.4,88,20,2.24,few clouds,0.0,0.0
447,Naze,JP,2020-05-09 20:51:01,28.37,129.48,71.6,94,66,5.82,broken clouds,0.0,0.0
448,Coari,BR,2020-05-09 20:51:02,-4.08,-63.14,80.55,93,97,2.1,moderate rain,0.0,0.0
449,Itarema,BR,2020-05-09 20:50:47,-2.92,-39.92,78.66,85,8,6.64,light rain,0.0,0.0
450,Gondanglegi,ID,2020-05-09 20:51:02,-7.75,112.01,74.44,92,100,5.5,light rain,0.0,0.0
451,Kyren,RU,2020-05-09 20:51:03,51.68,102.14,38.23,71,20,1.83,few clouds,0.0,0.0
452,Mugur-Aksy,RU,2020-05-09 20:51:03,50.35,90.5,36.34,69,0,3.69,clear sky,0.0,0.0
453,Abu Dhabi,AE,2020-05-09 20:46:06,24.47,54.37,84.2,66,0,3.36,clear sky,0.0,0.0
454,Carbonia,IT,2020-05-09 20:51:03,39.17,8.52,66.2,88,75,9.17,broken clouds,0.0,0.0
455,Moree,AU,2020-05-09 20:51:04,-29.47,149.85,50.0,87,0,13.22,clear sky,0.0,0.0
456,Cuamba,MZ,2020-05-09 20:51:04,-14.8,36.54,63.64,85,29,6.82,scattered clouds,0.0,0.0
457,Gillette,US,2020-05-09 20:51:04,44.29,-105.5,50.0,34,20,19.46,few clouds,0.0,0.0
458,Trairi,BR,2020-05-09 20:51:04,-3.28,-39.27,77.85,88,7,5.23,light rain,0.0,0.0
459,Bodden Town,KY,2020-05-09 20:51:04,19.28,-81.25,89.6,75,20,8.05,few clouds,0.0,0.0
460,Nyaunglebin,MM,2020-05-09 20:51:05,17.95,96.73,80.6,67,0,3.76,clear sky,0.0,0.0
461,Waingapu,ID,2020-05-09 20:50:19,-9.66,120.26,76.23,83,64,8.16,broken clouds,0.0,0.0
462,Vytegra,RU,2020-05-09 20:51:05,61.01,36.45,41.31,76,0,4.81,clear sky,0.0,0.0
463,Lamu,KE,2020-05-09 20:51:05,-2.27,40.9,78.96,87,100,19.1,moderate rain,0.0,0.0
464,De Aar,ZA,2020-05-09 20:51:06,-30.65,24.01,57.92,36,0,1.19,clear sky,0.0,0.0
465,Mtambile,TZ,2020-05-09 20:51:06,-5.38,39.7,81.3,74,97,17.49,light rain,0.0,0.0
466,Walvis Bay,NA,2020-05-09 20:46:35,-22.96,14.51,74.01,38,0,4.76,clear sky,0.0,0.0
467,Gazojak,TM,2020-05-09 20:51:06,41.19,61.4,73.8,37,0,7.7,clear sky,0.0,0.0
468,San Vicente,AR,2020-05-09 20:51:07,-26.62,-54.13,62.24,63,0,2.75,clear sky,0.0,0.0
469,Hillsborough,US,2020-05-09 20:51:07,37.57,-122.38,71.01,63,20,18.34,few clouds,0.0,0.0
470,Pacific Grove,US,2020-05-09 20:47:00,36.62,-121.92,71.01,59,1,6.93,clear sky,0.0,0.0
471,Miandrivazo,MG,2020-05-09 20:51:07,-19.52,45.47,73.98,71,1,1.39,clear sky,0.0,0.0
472,Starkville,US,2020-05-09 20:51:08,33.45,-88.82,69.01,36,1,8.05,clear sky,0.0,0.0
473,Olonets,RU,2020-05-09 20:51:08,60.98,32.97,39.36,73,3,3.56,clear sky,0.0,0.0
474,Fukue,JP,2020-05-09 20:51:08,32.69,128.84,64.96,88,99,13.56,light rain,0.0,0.0
475,Komsomolskiy,UZ,2020-05-09 20:51:08,40.43,71.72,64.4,68,39,6.93,scattered clouds,0.0,0.0
476,Winslow,US,2020-05-09 20:51:08,35.02,-110.7,84.2,9,1,11.41,clear sky,0.0,0.0
477,Talnakh,RU,2020-05-09 20:51:09,69.49,88.4,30.2,86,75,20.13,broken clouds,0.0,0.0
478,Yatou,CN,2020-05-09 20:51:09,37.15,122.38,54.7,93,100,7.83,light rain,0.0,0.0
479,Ilhabela,BR,2020-05-09 20:48:55,-23.78,-45.36,68.27,72,0,9.04,clear sky,0.0,0.0
480,Hong Gai,VN,2020-05-09 20:51:09,20.96,107.09,82.4,88,20,6.93,few clouds,0.0,0.0
481,Labuhan,ID,2020-05-09 20:51:10,-6.88,112.21,76.03,91,100,11.16,overcast clouds,0.0,0.0
482,Andros Town,BS,2020-05-09 20:51:10,24.7,-77.77,78.8,83,75,9.17,broken clouds,0.0,0.0
483,Liyang,CN,2020-05-09 20:51:10,29.71,118.29,65.25,86,100,1.92,light rain,0.0,0.0
484,Omsukchan,RU,2020-05-09 20:51:11,62.53,155.8,29.3,96,100,12.03,snow,0.0,0.0
485,Yerbogachen,RU,2020-05-09 20:51:11,61.28,108.01,46.92,94,100,9.01,light rain,0.0,0.0
486,Greenwood,US,2020-05-09 20:51:11,34.17,-82.12,66.99,36,1,4.03,clear sky,0.0,0.0
487,Oranjemund,NA,2020-05-09 20:51:11,-28.55,16.43,68.25,44,0,5.79,clear sky,0.0,0.0
488,Killarney,IE,2020-05-09 20:51:11,52.05,-9.52,55.98,89,98,3.27,overcast clouds,0.0,0.0
489,Harper,LR,2020-05-09 20:51:12,4.38,-7.72,80.11,87,92,10.18,moderate rain,0.0,0.0
490,Candelaria,PH,2020-05-09 20:51:12,13.93,121.42,80.01,89,29,3.58,scattered clouds,0.0,0.0
491,Kizema,RU,2020-05-09 20:51:12,61.11,44.83,41.25,94,93,2.04,overcast clouds,0.0,0.0
492,Fort Nelson,CA,2020-05-09 20:51:12,58.81,-122.7,53.6,30,40,10.29,scattered clouds,0.0,0.0
493,Yazd,IR,2020-05-09 20:51:13,31.9,54.37,73.4,17,20,4.7,few clouds,0.0,0.0
494,Lensk,RU,2020-05-09 20:51:13,60.73,114.93,35.87,90,100,6.73,light snow,0.0,0.0
495,Port Augusta,AU,2020-05-09 20:51:13,-32.5,137.77,42.8,93,0,6.93,clear sky,0.0,0.0
496,Kumluca,TR,2020-05-09 20:51:13,36.37,30.29,67.55,44,0,5.39,clear sky,0.0,0.0
497,Asekeyevo,RU,2020-05-09 20:51:14,53.57,52.8,60.67,65,95,10.78,light rain,0.0,0.0
498,Rawson,AR,2020-05-09 20:51:14,-43.3,-65.1,65.21,32,29,10.87,scattered clouds,0.0,0.0
499,Meulaboh,ID,2020-05-09 20:51:14,4.14,96.13,77.47,89,100,4.09,light rain,0.0,0.0
500,Whitehorse,CA,2020-05-09 20:51:14,60.72,-135.05,66.2,25,20,19.46,few clouds,0.0,0.0
501,Ixtapa,MX,2020-05-09 20:51:14,20.7,-105.2,84.2,70,40,13.87,scattered clouds,0.0,0.0
502,Bonanza,NI,2020-05-09 20:51:15,14.03,-84.59,84.9,68,100,3.62,light rain,0.0,0.0
503,Morehead,US,2020-05-09 20:51:15,37.27,-87.18,62.01,33,1,5.82,clear sky,0.0,0.0
504,Baruun-Urt,MN,2020-05-09 20:51:15,46.68,113.28,40.55,66,100,20.74,overcast clouds,0.0,0.0
505,Asau,RO,2020-05-09 20:51:15,46.43,26.4,48.99,84,66,2.66,broken clouds,0.0,0.0
506,Hun,LY,2020-05-09 20:51:16,29.13,15.95,78.24,16,73,13.38,broken clouds,0.0,0.0
507,Pedasi,PA,2020-05-09 20:51:16,7.53,-80.03,84.0,77,41,8.14,scattered clouds,0.0,0.0
508,Freetown,SL,2020-05-09 20:51:16,8.48,-13.23,80.55,87,100,5.57,light rain,0.0,0.0
509,Shubarshi,KZ,2020-05-09 20:51:16,48.59,57.19,60.82,66,59,5.73,broken clouds,0.0,0.0
510,Vidim,RU,2020-05-09 20:51:17,56.41,103.11,43.63,82,100,10.07,overcast clouds,0.0,0.0
511,Sabang,ID,2020-05-09 20:51:17,5.89,95.32,79.0,87,100,14.41,light rain,0.0,0.0
512,Palafrugell,ES,2020-05-09 20:51:17,41.92,3.16,64.0,50,30,9.1,scattered clouds,0.0,0.0
513,Sahuaripa,MX,2020-05-09 20:51:17,29.05,-109.23,96.57,18,0,4.59,clear sky,0.0,0.0
514,Bartica,GY,2020-05-09 20:51:18,6.4,-58.62,87.8,58,40,16.11,scattered clouds,0.0,0.0
515,Tempio Pausania,IT,2020-05-09 20:51:18,40.9,9.1,64.4,82,98,4.7,overcast clouds,0.0,0.0
516,Reconquista,AR,2020-05-09 20:51:18,-29.15,-59.65,66.24,56,0,6.76,clear sky,0.0,0.0
517,Kardla,EE,2020-05-09 20:51:18,59.0,22.75,41.13,66,29,2.95,scattered clouds,0.0,0.0
518,Shimoda,JP,2020-05-09 20:51:18,34.67,138.95,62.6,93,75,3.36,light intensity shower rain,0.0,0.0
519,Constitucion,CL,2020-05-09 20:50:20,-35.33,-72.42,59.63,84,22,4.14,few clouds,0.0,0.0
520,Svetlogorsk,BY,2020-05-09 20:51:19,52.63,29.73,49.41,83,100,3.71,overcast clouds,0.0,0.0
521,Keetmanshoop,NA,2020-05-09 20:51:19,-26.58,18.13,73.4,22,0,8.05,clear sky,0.0,0.0
522,Saint-Joseph,RE,2020-05-09 20:51:18,-21.37,55.62,69.8,77,20,8.05,few clouds,0.0,0.0
523,Bassano,CA,2020-05-09 20:51:20,50.78,-112.47,51.01,56,60,4.0,light rain,0.0,0.0
524,Veydelevka,RU,2020-05-09 20:51:20,50.15,38.45,45.43,94,71,7.47,broken clouds,0.0,0.0
525,Luba,GQ,2020-05-09 20:51:20,3.46,8.55,82.92,77,68,7.94,light rain,0.0,0.0
526,Lerwick,GB,2020-05-09 20:51:21,60.15,-1.15,39.2,74,84,18.34,broken clouds,0.0,0.0
527,Ostersund,SE,2020-05-09 20:51:21,63.18,14.64,35.6,93,72,1.12,light intensity drizzle,0.0,0.0
528,Suntar,RU,2020-05-09 20:51:21,62.14,117.63,32.61,86,11,5.93,few clouds,0.0,0.0
529,Yonezawa,JP,2020-05-09 20:51:21,37.92,140.12,57.0,65,97,1.83,overcast clouds,0.0,0.0
530,Yumbo,CO,2020-05-09 20:51:21,3.58,-76.49,91.4,49,40,5.59,scattered clouds,0.0,0.0
531,Uglich,RU,2020-05-09 20:51:22,57.53,38.33,43.99,73,86,4.65,overcast clouds,0.0,0.0
532,Isla Mujeres,MX,2020-05-09 20:51:22,21.23,-86.73,84.2,79,90,11.41,overcast clouds,0.0,0.0
533,Hantsport,CA,2020-05-09 20:51:22,45.07,-64.17,46.99,45,83,8.99,broken clouds,0.0,0.0
534,Sisimiut,GL,2020-05-09 20:51:22,66.94,-53.67,37.02,88,96,4.88,overcast clouds,0.0,0.0
535,Belmonte,BR,2020-05-09 20:51:23,-15.86,-38.88,75.2,57,75,9.17,broken clouds,0.0,0.0
536,Ulaangom,MN,2020-05-09 20:51:23,49.98,92.07,42.48,54,0,0.27,clear sky,0.0,0.0
537,Shivrajpur,IN,2020-05-09 20:51:23,22.42,73.65,76.96,66,0,3.6,clear sky,0.0,0.0
538,Kamina,CD,2020-05-09 20:51:23,-8.74,24.99,65.14,88,0,3.06,clear sky,0.0,0.0
539,Puerto Vallarta,MX,2020-05-09 20:49:18,20.62,-105.23,84.2,70,40,13.87,scattered clouds,0.0,0.0
540,Pinawa,CA,2020-05-09 20:51:24,50.15,-95.88,49.01,44,96,12.48,overcast clouds,0.0,0.0
541,Rudbar,AF,2020-05-09 20:51:24,30.15,62.6,85.8,14,7,7.74,clear sky,0.0,0.0
542,Ust-Nera,RU,2020-05-09 20:51:24,64.57,143.2,28.81,92,71,6.04,broken clouds,0.0,0.0
543,Najran,SA,2020-05-09 20:50:25,17.49,44.13,80.6,32,0,2.33,clear sky,0.0,0.0
544,Joshimath,IN,2020-05-09 20:51:25,30.57,79.57,52.43,44,33,6.53,scattered clouds,0.0,0.0
545,Aasiaat,GL,2020-05-09 20:51:25,68.71,-52.87,34.05,85,99,4.29,overcast clouds,0.0,0.0
546,Malko Tarnovo,BG,2020-05-09 20:51:25,41.98,27.53,55.99,76,99,5.82,overcast clouds,0.0,0.0
547,Pangnirtung,CA,2020-05-09 20:51:25,66.15,-65.71,31.68,92,100,5.93,overcast clouds,0.0,0.0
548,Saumur,FR,2020-05-09 20:51:26,47.33,-0.25,63.0,93,37,2.24,light rain,0.0,0.0
549,Juba,SS,2020-05-09 20:51:26,4.85,31.58,75.18,83,93,2.73,light rain,0.0,0.0
550,Hualmay,PE,2020-05-09 20:51:26,-11.1,-77.61,71.15,73,37,10.51,scattered clouds,0.0,0.0
551,Novoagansk,RU,2020-05-09 20:51:26,61.94,76.66,52.7,83,2,7.0,clear sky,0.0,0.0
